City_ID,City,Country,Max Temp,Current Description,Lat,Lng,Hotel Name
0,hilo,US,78.53,heavy intensity rain,19.7297,-155.09,Hilo Hawaiian Hotel
1,carnarvon,AU,77.07,scattered clouds,-24.8667,113.6333,Hospitality Carnarvon
4,arraial do cabo,BR,82.36,scattered clouds,-22.9661,-42.0278,Pousada Porto Praia
6,shihezi,CN,55.92,clear sky,44.3,86.0333,Home Inn Shihezi Dongwu Road Century Square
7,vaini,TO,73.56,light intensity shower rain,-21.2,-175.2,Keleti Beach Resort
8,meadow lake,US,73.71,broken clouds,34.8014,-106.5436,TumbleWeed RV Park
15,bredasdorp,ZA,61.47,broken clouds,-34.5322,20.0403,Bredasdorp Country Manor
16,victoria,HK,65.25,clear sky,22.2855,114.1577,Mini Hotel Central
18,aksu,CN,57.31,clear sky,41.1231,80.2644,Pudong Holiday Hotel
19,hermanus,ZA,61.81,clear sky,-34.4187,19.2345,Misty Waves Boutique Hotel
22,faanui,PF,81.52,overcast clouds,-16.4833,-151.75,Bora-Bora Pearl Beach Resort & Spa
23,beyneu,KZ,64.9,overcast clouds,45.3167,55.2,NUR
24,salalah,OM,80.69,clear sky,17.0151,54.0924,"HAMDAN PLAZA HOTEL SALALAH, an HTG Hotel"
27,cidreira,BR,69.98,heavy intensity rain,-30.1811,-50.2056,Hotel Castelo
29,honiara,SB,79.0,light rain,-9.4333,159.95,Heritage Park Hotel
30,new norfolk,AU,56.7,overcast clouds,-42.7826,147.0587,The Shingles Riverside Cottages
31,praya,CV,73.94,few clouds,14.9215,-23.5087,LT Aparthotel
32,avarua,CK,77.05,few clouds,-21.2078,-159.775,Paradise Inn
36,east london,ZA,72.39,overcast clouds,-33.0153,27.9116,Tu Casa
37,airai,TL,56.95,few clouds,-8.9266,125.4092,
38,port alfred,ZA,68.18,overcast clouds,-33.5906,26.891,The Halyards Hotel
39,hobart,AU,57.06,overcast clouds,-42.8794,147.3294,St Ives Hobart Accommodation Tasmania
41,mabaruma,GY,82.17,overcast clouds,8.2,-59.7833,Monty Brooms Guest House
42,luanda,AO,80.6,broken clouds,-8.8368,13.2343,EPIC SANA Luanda
44,vila velha,BR,84.15,scattered clouds,-20.3297,-40.2925,Hotel Vitória Palace
45,naze,JP,58.12,few clouds,28.3667,129.4833,Shishime Hotel
47,dingle,PH,75.43,overcast clouds,10.9995,122.6711,SEGAYA PROPERTY
48,ponta do sol,PT,61.43,overcast clouds,32.6667,-17.1,Hotel do Campo
50,atuona,PF,79.95,broken clouds,-9.8,-139.0333,Villa Enata
52,alofi,NU,75.09,overcast clouds,-19.0595,-169.9187,Taloa Heights
53,butaritari,KI,81.46,overcast clouds,3.0707,172.7902,Isles Sunset Lodge
54,cockburn town,TC,82.36,scattered clouds,21.4612,-71.1419,Osprey Beach Hotel
56,chuy,UY,71.62,light rain,-33.6971,-53.4616,Nuevo Hotel Plaza
57,laguna,US,78.78,clear sky,38.421,-121.4238,"Holiday Inn Express & Suites Elk Grove Central - Hwy 99, an IHG Hotel"
59,sao filipe,CV,71.13,clear sky,14.8961,-24.4956,Hotel Xaguate
60,faya,SA,66.31,broken clouds,18.3851,42.4509,املاك خالد الشعشوع
62,busselton,AU,62.58,broken clouds,-33.65,115.3333,Observatory Guest House
64,ca mau,VN,77.02,overcast clouds,9.1769,105.15,Khách Sạn Mường Thanh Luxury Cà Mau
65,bluff,NZ,56.23,overcast clouds,-46.6,168.3333,Bluff Homestead - Guesthouse & Campervan Park
66,mount isa,AU,74.97,light rain,-20.7333,139.5,ibis Styles Mt Isa Verona
67,rincon,US,77.86,clear sky,32.296,-81.2354,Days Inn Rincon
70,bengkulu,ID,76.95,overcast clouds,-3.8004,102.2655,Grage Hotel Bengkulu
73,katsuura,JP,54.25,moderate rain,35.1333,140.3,Katsuura Hotel Mikazuki
74,rikitea,PF,76.71,broken clouds,-23.1203,-134.9692,People ThankYou
75,port elizabeth,ZA,64.09,clear sky,-33.918,25.5701,39 On Nile Guest House
76,marawi,PH,67.33,overcast clouds,7.9986,124.2928,Derogongan Residence
80,amapa,BR,77.52,moderate rain,1.0,-52.0,
81,saint-pierre,RE,74.88,light rain,-21.3393,55.4781,Lindsey Hôtel
82,hokitika,NZ,54.84,clear sky,-42.7167,170.9667,Beachfront Hotel Hokitika
84,mahebourg,MU,80.26,broken clouds,-20.4081,57.7,Shandrani Beachcomber Resort & Spa
85,pyapon,MM,79.88,overcast clouds,16.2833,95.6833,Aung Naing Thu Motel
86,kapaa,US,78.19,scattered clouds,22.0752,-159.319,Sheraton Kauai Coconut Beach Resort
87,palauig,PH,77.88,overcast clouds,15.435,119.9045,Alperi Botique Resort
89,kavieng,PG,80.69,light rain,-2.5744,150.7967,Nusa Island Retreat
90,hithadhoo,MV,83.03,broken clouds,-0.6,73.0833,Scoop Guest House
92,tezu,IN,66.15,light rain,27.9167,96.1667,Circuit House
96,mar del plata,AR,75.22,scattered clouds,-38.0023,-57.5575,Gran Hotel Mar del Plata
97,salinopolis,BR,81.73,moderate rain,-0.6136,-47.3561,Salinas Park Resort Maçarico AP101
100,saldanha,ZA,59.05,clear sky,-33.0117,17.9442,Blue Bay Lodge
102,lebu,CL,56.89,clear sky,-37.6167,-73.65,Hostal Las Lilas
103,amahai,ID,78.1,overcast clouds,-3.3333,128.9167,HOTEL ISABELA
106,beloha,MG,71.96,clear sky,-25.1667,45.05,
108,mkuranga,TZ,79.79,few clouds,-7.118,39.2078,Luminoso Lodge
110,marsh harbour,BS,78.13,broken clouds,26.5412,-77.0636,Abaco Beach Resort
111,taft,IR,69.75,few clouds,31.7471,54.2088,عمارت ساعتی تفت
112,waipawa,NZ,53.38,few clouds,-41.4122,175.5153,Tora Coastal Walk
114,darnah,LY,60.66,clear sky,32.767,22.6367,فندق الفردوس
115,cape town,ZA,65.12,clear sky,-33.9258,18.4232,"Radisson Blu Hotel Waterfront, Cape Town"
116,barinas,VE,84.24,overcast clouds,8.6226,-70.2075,Hotel Mastranto Suite
120,jutai,BR,83.68,overcast clouds,-5.1833,-68.9,
122,necochea,AR,55.35,overcast clouds,-38.5473,-58.7368,dyd -mar Hotel
123,georgetown,MY,78.73,few clouds,5.4112,100.3354,Cititel Penang
126,sao raimundo das mangabeiras,BR,83.8,scattered clouds,-7.0219,-45.4811,Hotel Tropical
128,coquimbo,CL,62.33,clear sky,-29.9533,-71.3436,Hotel San Juan
129,bambous virieux,MU,80.22,broken clouds,-20.3428,57.7575,Casa Tia Villa
131,otane,NZ,55.0,broken clouds,-39.8833,176.6333,Ludlow Farmstay
133,vanimo,PG,77.31,overcast clouds,-2.6741,141.3028,Vahmoneh Lodge Vanimo
135,mersing,MY,71.51,light rain,2.4312,103.8405,Timotel Hotel
136,netivot,IL,63.66,overcast clouds,31.4222,34.5886,"'בית החסד - מוסדות מאורות נתן' - מיסודו של הרב נתן בוקובזה זצוק""ל"
137,marzuq,YE,69.84,clear sky,14.4,46.4667,
140,moerai,PF,81.19,overcast clouds,-22.4333,-151.3333,Le Manotel
142,olinda,BR,83.93,scattered clouds,-8.0089,-34.8553,Flat Quatro Rodas Olinda
145,pacifica,US,77.43,mist,37.6138,-122.4869,"Pacifica Lighthouse, Trademark Collection by Wyndham"
146,sechura,PE,83.52,broken clouds,-5.5569,-80.8222,Hospedaje Costa Bella
148,buraydah,SA,79.25,broken clouds,26.326,43.975,Mövenpick Qassim
150,mecca,SA,83.8,overcast clouds,21.4267,39.8261,"Makkah Clock Royal Tower, A Fairmont Hotel"
156,makakilo city,US,77.32,few clouds,21.3469,-158.0858,Marriott's Ko Olina Beach Club
158,harindanga,IN,80.19,overcast clouds,22.0383,88.3214,Hasanur Builders
159,catamarca,AR,84.78,clear sky,-28.4696,-65.7852,Amerian Catamarca Park Hotel
160,talas,TR,57.87,broken clouds,38.6908,35.5538,Fimaj Residence
165,nsanje,MW,74.43,few clouds,-16.92,35.262,Nsanje Discovery Lodge
167,itoman,JP,64.42,scattered clouds,26.1247,127.6694,Southern Beach Hotel & Resort Okinawa
168,saint-philippe,RE,74.79,heavy intensity rain,-21.3585,55.7679,"Chambres d'hôte ""La Trinité"""
169,hervey bay,AU,68.02,clear sky,-25.2986,152.8535,Shelly Bay Resort
171,tukrah,LY,64.36,clear sky,32.5341,20.5791,Lagrota restaurant
172,tabas,IR,76.44,broken clouds,33.5959,56.9244,شرکت معماری مهراز شایگان آراد
173,turbat,PK,80.15,clear sky,26.0023,63.044,Mubashar Quarters
174,north platte,US,62.49,clear sky,41.1239,-100.7654,"Holiday Inn Express & Suites North Platte, an IHG Hotel"
176,santo amaro da imperatriz,BR,75.76,overcast clouds,-27.6881,-48.7786,BBS Comércio de Produtos Agropecuários.
177,hambantota,LK,79.3,clear sky,6.1241,81.1185,Bungalow 63
178,saint george,US,75.63,clear sky,37.1041,-113.5841,Best Western Plus Abbey Inn
180,yendi,GH,83.23,overcast clouds,9.4427,-0.0099,Eyarro Lodge
183,vao,NC,79.11,overcast clouds,-22.6667,167.4833,Hotel Kou-Bugny
184,kieta,PG,79.11,overcast clouds,-6.2167,155.6333,Uruna Bay Retreat
185,palmer,US,52.41,overcast clouds,42.1584,-72.3287,Wedgewood Motel
187,aden,YE,82.56,clear sky,12.7794,45.0367,Sama Emirate Hotel
191,trincomalee,LK,80.64,clear sky,8.5711,81.2335,Welcombe Hotel
192,baturaja,ID,72.95,overcast clouds,-4.1333,104.1667,"HOTEL Sekar Sunja, Baturaja Timur, Ogan Komering Ulu"
193,damghan,IR,69.35,clear sky,36.1683,54.348,خوابگاه اساتيد دانشگاه دامغان
195,uruzgan,AF,58.75,clear sky,32.8333,66.0,
197,codrington,AU,58.39,overcast clouds,-38.2667,141.9667,Codrington Gardens Bed And Breakfast
201,jieshi,CN,61.95,clear sky,22.8134,115.8257,Yuehai Hotel
204,axim,GH,81.97,overcast clouds,4.8699,-2.2405,Axim Beach Resort And Spa
205,cartagena,CO,80.22,broken clouds,10.3997,-75.5144,Hotel Colombia Real - Cartagena
206,grand gaube,MU,80.38,scattered clouds,-20.0064,57.6608,Veranda Paul et Virginie Hotel & Spa
207,itarema,BR,79.29,moderate rain,-2.9248,-39.9167,"Sea Lounge! Bar, Club & Restaurant"
208,cabo san lucas,MX,77.61,clear sky,22.8909,-109.9124,Hotel Tesoro Los Cabos
209,morehead,US,61.0,clear sky,37.2711,-87.1764,CCI Express Inn
210,isangel,VU,80.24,overcast clouds,-19.55,169.2667,Tanna Lodge
211,rio gallegos,AR,53.65,scattered clouds,-51.6226,-69.2181,Hotel Santa Cruz
212,kirakira,SB,80.71,overcast clouds,-10.4544,161.9205,SanBiz Lodge
213,ribeira grande,PT,64.8,few clouds,38.5167,-28.7,Quinta da Meia Eira
214,nakasongola,UG,73.45,broken clouds,1.3089,32.4564,Norena Hotel Nakasongola
215,ahipara,NZ,64.74,clear sky,-35.1667,173.1667,Ahipara Holiday Park
216,cayenne,GF,82.44,light rain,4.9333,-52.3333,Hôtel Le Dronmi
217,ruwi,OM,82.09,clear sky,23.5996,58.5507,Al Falaj Hotel
218,hobyo,SO,81.61,scattered clouds,5.3505,48.5268,Iftin hotel hobyo
221,los llanos de aridane,ES,64.15,scattered clouds,28.6585,-17.9182,Valle Aridane
224,abyek,IR,64.0,clear sky,36.0667,50.55,kaspian sanat navrd sina(لوله مبلی سینا)
226,natal,BR,79.45,moderate rain,-5.795,-35.2094,Villa Park Hotel | Natal
230,juba,SS,81.45,overcast clouds,4.8517,31.5825,ROYAL PALACE HOTEL - JUBA
231,tabou,CI,80.47,overcast clouds,4.423,-7.3528,hotêl doufoulougou
232,kingaroy,AU,64.44,broken clouds,-26.5333,151.8333,Ascot Lodge Motel Kingaroy
234,brazzaville,CG,77.38,overcast clouds,-4.2658,15.2832,Hotel Muesse
236,jamame,SO,79.95,broken clouds,0.0722,42.7506,
237,sao joao da barra,BR,78.89,few clouds,-21.6403,-41.0511,Pousada Porto De Canoas
238,las vegas,US,80.19,clear sky,36.175,-115.1372,Plaza Hotel & Casino
239,astoria,US,53.49,overcast clouds,46.1879,-123.8313,Best Western Astoria Bayfront Hotel
240,coihaique,CL,53.55,light intensity shower rain,-45.5752,-72.0662,Diego De Almagro Coyhaique
243,vermilion,US,60.62,clear sky,40.1667,-87.7506,Sparkling Springs Cabin
245,castro,BR,71.73,broken clouds,-24.7911,-50.0119,CHACARA BAILLY
246,sibolga,ID,74.8,overcast clouds,1.7427,98.7792,Hotel Syariah CN Darussalam
247,rawson,AR,62.29,few clouds,-43.3002,-65.1023,Hosteria Sampedro
249,santa cruz del sur,CU,84.69,light rain,20.7147,-77.9956,
251,koroni,GR,51.51,few clouds,36.8,21.95,Apartments Xenios Zeus 1
252,kamloops,CA,56.75,broken clouds,50.6665,-120.3192,Ramada by Wyndham Kamloops
253,avera,US,74.37,clear sky,33.194,-82.5271,
256,ambilobe,MG,73.2,light rain,-13.2,49.05,Hôtel & Restaurant DIANA Ambilobe
257,camacha,PT,58.42,broken clouds,33.0833,-16.3333,Hotel Porto Santo & Spa
261,elizabeth city,US,73.42,clear sky,36.2946,-76.2511,Hampton Inn Elizabeth City
263,mongomo,GQ,67.39,overcast clouds,1.6274,11.3135,NAIM OBUC
264,lorengau,PG,80.06,overcast clouds,-2.0226,147.2712,Lorengau Harbourside Hotel
265,sarkhej,IN,84.33,smoke,22.9833,72.5,Hotel Royal
269,paita,PE,77.67,scattered clouds,-5.0892,-81.1144,Hotel Náutico de Paita
272,banyo,CM,77.88,overcast clouds,6.75,11.8167,Motel JOMBA
274,nkhotakota,MW,73.71,broken clouds,-12.9274,34.2961,Sitima Inn
275,esperance,AU,62.44,light rain,-33.8667,121.9,Hospitality Esperance
277,price,US,61.12,few clouds,39.5994,-110.8107,National 9 - Price River Inn
278,half moon bay,US,78.55,mist,37.4636,-122.4286,"The Ritz-Carlton, Half Moon Bay"
279,san policarpo,PH,79.18,overcast clouds,12.1791,125.5072,Agapita M. Nicart
280,hamilton,US,57.94,scattered clouds,39.1834,-84.5333,Six Acres Bed & Breakfast
281,beidao,CN,50.68,overcast clouds,34.5686,105.8933,Shell Tianshui Maiji District Erma Road Walking Street Hotel
282,bulawayo,ZW,68.09,broken clouds,-20.15,28.5833,4 On Housman Backpackers
284,tayu,ID,74.34,light rain,-6.5397,111.0518,Toko pakaian bu is Tayu
285,cairns,AU,76.06,overcast clouds,-16.9167,145.7667,Mantra Trilogy Cairns
287,thoen,TH,70.7,scattered clouds,17.6129,99.2161,บ้านห้องนอน
288,barda,AZ,65.48,broken clouds,40.3744,47.1267,Prins Motel Restoran
289,sur,OM,82.44,clear sky,22.5667,59.5289,Sur Plaza Hotel
291,hami,CN,53.71,clear sky,42.8,93.45,Laoyutang Resort
294,ilo,PE,71.87,clear sky,-17.6394,-71.3375,Torreblanca Hotel
295,pemangkat,ID,77.52,overcast clouds,1.1667,108.9667,Ramah Kost KITA
296,elko,US,54.64,clear sky,41.0002,-115.5012,
297,north bend,US,59.92,overcast clouds,43.4065,-124.2243,Red Lion Hotel Coos Bay
298,miri,MY,75.34,few clouds,4.4148,114.0089,"Mega Hotel, Miri"
299,bryant,US,76.28,clear sky,34.5959,-92.4891,La Quinta Inn & Suites by Wyndham Little Rock - Bryant
300,constitucion,CL,62.78,clear sky,-35.3333,-72.4167,Hotel Boutique Las Azucenas
301,sao felix do xingu,BR,80.04,very heavy rain,-6.6447,-51.995,Rio Xingu Camping
302,pokhara,NP,66.92,broken clouds,28.2333,83.9833,OYO 170 Hotel View Point
303,nelson bay,AU,63.0,overcast clouds,-32.7167,152.15,Mantra Nelson Bay
304,ahvaz,IR,73.35,clear sky,31.3203,48.6693,tashrifat tourism travel agency
305,prado,BR,80.04,clear sky,-17.3411,-39.2208,INN CORNER RIVER - PRADO - BAHIA - HOUSING AND HOTEL
306,dunedin,NZ,55.8,overcast clouds,-45.8742,170.5036,Scenic Hotel Southern Cross
307,ambulu,ID,74.32,clear sky,-8.345,113.6058,Hotel Ambulu Jember
311,cape coast,GH,82.63,light rain,5.1053,-1.2466,Samrit Hotel
313,geraldton,AU,72.01,broken clouds,-28.7667,114.6,Broadwater Mariner Resort
314,peruibe,BR,76.41,broken clouds,-24.32,-46.9983,Hotel Pousada Xapuri
315,tra vinh,VN,76.21,overcast clouds,9.9347,106.3453,Hồng Ân
318,sembakung,ID,73.22,broken clouds,3.8167,117.25,
319,lat yao,TH,72.68,overcast clouds,15.751,99.7893,โรงแรมสอระ
320,kiama,AU,62.08,clear sky,-34.6833,150.8667,The Sebel Kiama Harbourside
321,henderson,US,80.04,clear sky,36.0397,-114.9819,Hawthorn Suites By Wyndham Las Vegas/Henderson
322,kashi,CN,58.21,clear sky,39.4547,75.9797,帕米尔青年旅舍
323,komsomolskiy,UZ,57.92,overcast clouds,40.4272,71.7189,Ikathouse
324,gat,IL,72.39,overcast clouds,31.61,34.7642,OlusHome
325,viedma,AR,53.94,overcast clouds,-40.8135,-62.9967,Hotel Cristal
326,lethem,GY,82.81,overcast clouds,3.3803,-59.7968,Savannah Inn
327,bac lieu,VN,80.02,overcast clouds,9.285,105.7244,Khách sạn Sài Gòn Bạc Liêu
328,wanning,CN,66.58,overcast clouds,18.8003,110.3967,Paradise Hotel
329,shache,CN,59.45,scattered clouds,38.4167,77.2406,Delong Hotel
330,tautira,PF,81.81,light rain,-17.7333,-149.15,Pension Oaoa
332,flinders,AU,61.88,clear sky,-34.5833,150.8552,Shellharbour Resort & Conference Centre
333,luebo,CD,71.87,moderate rain,-5.35,21.4167,
334,vallenar,CL,82.26,clear sky,-28.5708,-70.7581,Humacao Bed & Breakfast
336,tuy hoa,VN,71.15,overcast clouds,13.0833,109.3,CenDeluxe Hotel Tuy Hoa
338,kahului,US,78.96,scattered clouds,20.8947,-156.47,Maui Seaside Hotel
342,barcelos,PT,52.84,broken clouds,41.5388,-8.6151,Hotel Restaurante Bagoeira
343,chimbote,PE,73.87,few clouds,-9.0853,-78.5783,Hotel Briliá
344,sembe,CG,71.96,light rain,1.6481,14.5806,
345,marica,BR,80.55,scattered clouds,-22.9194,-42.8186,Marica Hills
346,kalmunai,LK,78.73,clear sky,7.4167,81.8167,VS Villa
348,thinadhoo,MV,82.89,clear sky,0.5333,72.9333,
349,kaseda,JP,51.85,clear sky,31.4167,130.3167,Sun Stay Kaseda
350,souillac,MU,79.18,broken clouds,-20.5167,57.5167,Shanti Maurice Resort & Spa
355,acapulco,MX,84.76,clear sky,16.8634,-99.8901,HS Hotsson Smart Acapulco
356,tuban,ID,75.33,overcast clouds,-6.8976,112.0649,Hotel Mustika
357,morgan city,US,82.99,clear sky,29.6994,-91.2068,Hampton Inn & Suites Morgan City
358,santa juliana,PH,72.86,overcast clouds,15.3283,120.4286,Majestic Mount Pinatubo Tour-BOGNOT LODGE SANTA JULIANA CAPAS
359,creel,MX,71.06,clear sky,27.75,-107.6333,The Lodge at Creel Hotel & SPA
360,matay,EG,74.05,scattered clouds,28.419,30.7792,Nag Aespen
361,nueve de julio,AR,67.78,clear sky,-35.4444,-60.8831,Grand Hotel Libertad - GHL
363,jiexiu,CN,52.88,overcast clouds,37.0244,111.9125,IU Hotel Jinzhong Yuhua Road
364,paramonga,PE,72.95,few clouds,-10.6667,-77.8333,HOSTAL MI CHALET - PARAMONGA
366,black river,JM,84.4,clear sky,18.0264,-77.8487,Idlers' Rest Beach Hotel
367,hit,IQ,76.46,broken clouds,33.6416,42.8251,بيت ابو رباح
368,antalaha,MG,76.01,overcast clouds,-14.9003,50.2788,Hotel Vitasoa
371,ancud,CL,50.23,broken clouds,-41.8697,-73.8203,Hotel Arena Gruesa
373,sinnamary,GF,79.23,light rain,5.3833,-52.95,ALETHEIA Appartement Sinnamary
376,cascais,PT,57.47,clear sky,38.6979,-9.4215,Hotel Vila Galé Cascais
377,inongo,CD,73.98,light rain,-1.95,18.2667,Hotel Du Lac
378,guerrero negro,MX,65.97,scattered clouds,27.9769,-114.0611,"Casa Laguna, Bed & Breakfast"
379,fortuna,US,56.93,few clouds,40.5982,-124.1573,Super 8 by Wyndham Fortuna
380,lingao,CN,64.08,clear sky,19.9103,109.6859,Lingao Ditai Inn
382,inhambane,MZ,76.98,few clouds,-23.865,35.3833,Oceano
384,sao jose dos pinhais,BR,72.27,broken clouds,-25.5347,-49.2064,Mercure Curitiba Aeroporto Hotel
385,porto novo,BJ,84.02,overcast clouds,6.4965,2.6036,Tour Eiffel Hotel Benin
386,pisco,PE,73.45,clear sky,-13.7,-76.2167,Hotel San Isidro Oficial
387,marrakesh,MA,62.67,broken clouds,31.6315,-8.0083,Les Jardins de La Koutoubia
389,richards bay,ZA,75.47,overcast clouds,-28.783,32.0377,BON Hotel Waterfront Richards Bay
390,kismayo,SO,81.03,broken clouds,-0.3582,42.5454,Agan-Hotel
392,jonesboro,US,67.03,clear sky,35.8423,-90.7043,Hilton Garden Inn Jonesboro
393,fukue,JP,55.36,clear sky,32.6881,128.8419,Goto Guesthouse Utojuku & SA Car Rental
394,ratnagiri,IN,78.93,few clouds,16.9833,73.3,Hotel Landmark
396,colares,PT,57.29,few clouds,38.7992,-9.4469,Arribas Sintra Hotel
398,nisia floresta,BR,79.61,moderate rain,-6.0911,-35.2086,Rancho Crepusculo
399,samarai,PG,80.8,overcast clouds,-10.6167,150.6667,Nuli Sapi
400,nkoteng,CM,73.29,broken clouds,4.5167,12.0333,Résidence OOCLO-Cannelle
401,tanete,ID,74.32,overcast clouds,-3.9443,119.7848,Wisma Tri Multi
404,carutapera,BR,79.02,moderate rain,-1.195,-46.02,Lidera
405,lompoc,US,68.68,overcast clouds,34.6391,-120.4579,"Holiday Inn Express Lompoc, an IHG Hotel"
406,amberley,US,57.24,scattered clouds,39.2048,-84.428,Days Inn & Suites by Wyndham Cincinnati
407,kavaratti,IN,82.31,broken clouds,10.5669,72.642,Hotels in Lakshadweep Islands
408,puerto baquerizo moreno,EC,83.39,scattered clouds,-0.9,-89.6,Hotel los Algarrobos
409,almeirim,BR,83.32,broken clouds,-1.5233,-52.5817,Ricácio Hotel
410,bathsheba,BB,84.81,few clouds,13.2167,-59.5167,Atlantis Hotel
412,nedjo,ET,71.55,overcast clouds,9.5046,35.5019,Yerosan Hotel
413,seminole,US,83.14,few clouds,28.7086,-81.2081,Ono Hot Dog Cart and Catering
414,kinkala,CG,72.41,broken clouds,-4.3614,14.7644,Hotel la Pepeche Kinkala
416,puri,IN,79.9,clear sky,19.8,85.85,OYO 1577 Hotel Shree Hari Grand
417,oktyabrskoye,RU,55.54,scattered clouds,43.0645,44.7417,Prolesok Mini-hotel
421,nouadhibou,MR,67.98,clear sky,20.931,-17.0347,El Medina
423,salta,AR,82.99,clear sky,-24.7859,-65.4117,Hotel Alejandro I
428,paradise,US,80.1,broken clouds,36.0972,-115.1467,Best Western Mccarran Inn
431,pathein,MM,77.72,overcast clouds,16.7833,94.7333,Pathein Hotel
432,mindelo,CV,72.95,few clouds,16.8901,-24.9804,Hotel Gaudi
433,jinan,CN,53.17,clear sky,36.6683,116.9972,Sofitel Silver Plaza Hotel Jinan
435,gouyave,GD,83.17,scattered clouds,12.1646,-61.7296,Rumboat Retreat
436,huangchuan,CN,51.89,overcast clouds,32.1272,115.0394,Guangzhou International Hotel
441,mareeba,AU,70.52,few clouds,-17.0,145.4333,Trinity Plains Tourist Park
443,hualmay,PE,73.51,few clouds,-11.0964,-77.6139,Hotel Villa Kitzia Huacho
444,nador,MA,57.45,broken clouds,35.174,-2.9287,Hôtel La Giralda
447,ambovombe,MG,73.54,clear sky,-25.1667,46.0833,RELAHARA
448,rosetta,EG,61.88,clear sky,31.4044,30.4164,Green Valley
449,pemba,MZ,81.3,thunderstorm,-12.974,40.5178,Guesthouse Samotina
450,carupano,VE,82.71,few clouds,10.6678,-63.2585,Hotel La dorada
454,itaituba,BR,82.56,broken clouds,-4.2761,-55.9836,Hotel Campos
457,petauke,ZM,65.32,moderate rain,-14.2426,31.3253,Kwamwanja Wanthu
459,camapua,BR,83.46,broken clouds,-19.5314,-54.0439,Comercial Estrela
460,bonthe,SL,78.82,few clouds,7.5264,-12.505,Bonthe Holiday Village
461,iseyin,NG,82.74,overcast clouds,7.9667,3.6,Momak Hotels And Suites
462,mogok,MM,60.42,broken clouds,22.9167,96.5,MOGOK HILL HOTEL
465,vila franca do campo,PT,61.21,few clouds,37.7167,-25.4333,Pestana Bahia Praia
466,santa rosa,PH,80.02,overcast clouds,14.3122,121.1114,Erlyn’s Sta Rosa City Home
467,lazaro cardenas,MX,80.58,broken clouds,17.9583,-102.2,HOTEL QUINTA ANTIGUA
470,banepa,NP,64.72,broken clouds,27.6298,85.5214,Dhulikhel Lodge Resort
471,quesnel,CA,52.3,few clouds,52.9999,-122.5029,Ramada by Wyndham Quesnel
472,sao jose da coroa grande,BR,79.66,few clouds,-8.8978,-35.1478,Crôa Mares Hotel
473,matara,LK,77.25,scattered clouds,5.9485,80.5353,Amaloh Boutique Resort
474,bolila,PH,77.72,overcast clouds,6.3717,125.5714,Lower Felis Traveller's Inn
476,nishihara,JP,63.68,scattered clouds,26.1842,127.7558,Minshuku Agaihama
477,itaguacu,BR,80.22,overcast clouds,-19.8019,-40.8556,Hotel e Restaurante Amigão
480,namibe,AO,70.88,overcast clouds,-15.1961,12.1522,Hotel Chik Chik Namibe
482,polewali,ID,75.11,broken clouds,-3.4324,119.3435,Lilianto Hotel
483,acarau,BR,79.95,moderate rain,-2.8856,-40.12,castelo pizzaria
484,tsiroanomandidy,MG,64.53,clear sky,-18.7667,46.0333,Hotel Ravinala
485,san luis rio colorado,MX,82.9,clear sky,32.4631,-114.7767,HOTEL SAN ÁNGEL & SPA
486,male,MV,84.15,few clouds,4.1748,73.5089,Hotel Octave Maldives
487,iralaya,HN,83.44,clear sky,15.0,-83.2333,Iglesia morava renovada
488,tamasane,BW,79.38,overcast clouds,-22.4184,27.4013,
489,meulaboh,ID,74.25,overcast clouds,4.1363,96.1285,Kost Pria
490,kutum,SD,79.27,overcast clouds,14.2,24.6667,Dibbo areaمنطقة دبو
493,kudahuvadhoo,MV,82.8,clear sky,2.6708,72.8944,Niyama Private Islands Maldives
495,jand,PK,76.37,clear sky,33.4299,72.0193,Mohalla Takia
496,yambio,SS,70.27,broken clouds,4.5721,28.3955,Naivasha Hotel
497,gizo,SB,82.2,overcast clouds,-8.103,156.8419,Imagination Island
498,carlsbad,US,66.09,overcast clouds,33.1581,-117.3506,Carlsbad Inn Beach Resort
500,asmar,AF,64.38,clear sky,35.0333,71.3581,COP Monti
501,puerto del rosario,ES,65.95,scattered clouds,28.5004,-13.8627,Hotel JM Puerto del Rosario
503,simuay,PH,73.92,overcast clouds,7.2772,124.3072,BLMI Training Center
505,abu samrah,SY,60.67,overcast clouds,35.3029,37.1841,
506,dwarka,IN,78.28,clear sky,22.2394,68.9678,Hotel Narayan Avezika Comfort
511,manassas,US,57.58,overcast clouds,38.751,-77.4753,Olde Towne Inn
513,bangad,PH,71.17,overcast clouds,15.5036,121.0275,Hunter Valley Resort and Hotel
514,ulladulla,AU,61.7,overcast clouds,-35.35,150.4667,Sandpiper Motel
516,lagos,NG,84.52,overcast clouds,6.5833,3.75,
518,waingapu,ID,76.17,few clouds,-9.6567,120.2641,Pondok Wisata Elim
520,rathdrum,US,53.78,few clouds,47.8137,-116.892,Grizzly Lodge Rathdrum
523,zharkent,KZ,57.07,clear sky,44.1628,80.0,гостиница Satti
524,jalu,LY,78.8,clear sky,29.0331,21.5482,صاحبة الفخامة
529,san jeronimo,PE,59.7,broken clouds,-11.9472,-75.2829,Tuki Llajta Pueblo Bonito Eco Lodge
530,guajara,BR,76.41,moderate rain,-2.9667,-57.6667,
531,adrar,MR,82.63,clear sky,20.5022,-10.0711,
534,libano,CO,72.7,overcast clouds,4.9218,-75.0623,HOTEL CALLE REAL DEL LIBANO TOLIMA
539,dores do indaia,BR,78.69,scattered clouds,-19.4633,-45.6017,Hotel Central Dorense
541,karratha,AU,80.78,clear sky,-20.7377,116.8463,ibis Styles Karratha
542,santa vitoria do palmar,BR,70.97,light rain,-33.5189,-53.3681,Hostel Comodoro
545,copiapo,CL,64.09,clear sky,-27.3667,-70.3333,Antay Casino Hotel
548,san fernando,PH,73.89,overcast clouds,15.0286,120.6898,Maharlika Hostel
549,buta,CD,71.46,light rain,2.7858,24.73,HOTEL BISO NA BISO
550,shakawe,BW,67.08,moderate rain,-18.3667,21.85,Ditlhapi Guest House
552,valparaiso,CL,77.23,clear sky,-33.0393,-71.6273,Hotel Ultramar
553,zhuhai,CN,64.18,clear sky,22.2769,113.5678,珠海粤财假日酒店
556,graaff-reinet,ZA,61.92,scattered clouds,-32.2522,24.5308,Rietjiesbos Self Catering
557,ebolowa,CM,70.39,moderate rain,2.9,11.15,Florence Hotel Ebolowa
559,talcher,IN,74.37,clear sky,20.95,85.2167,Hotel Green Park
561,desaguadero,PE,54.9,scattered clouds,-16.5656,-69.0417,av. panamericana 264 desaguadero hotel
564,banda aceh,ID,77.36,overcast clouds,5.5577,95.3222,OYO 884 Rumoh PMI Hotel
566,san cristobal,VE,82.58,scattered clouds,7.7669,-72.225,Pirineos
567,george town,MY,78.73,few clouds,5.4112,100.3354,Cititel Penang
568,collie,AU,60.44,overcast clouds,-33.3667,116.15,Collie Ridge
569,burgersdorp,ZA,57.58,light rain,-30.9977,26.3286,DeKat Self Catering
570,poum,NC,81.99,overcast clouds,-20.2333,164.0167,
573,sola,VU,79.29,overcast clouds,-13.8833,167.55,Leumerus Bungalows
574,dalbandin,PK,74.84,clear sky,28.8947,64.4101,Sanjrani House
575,pimentel,PE,82.69,clear sky,-6.8367,-79.9342,Hotel Puerto del Sol
579,touros,BR,79.02,overcast clouds,-5.1989,-35.4608,INN NEW HORIZON
581,amboasary,MG,72.46,clear sky,-25.0333,46.3833,Le Bon Samaritain
585,rapid city,US,57.42,clear sky,44.0805,-103.231,"Hotel Alex Johnson Rapid City, Curio Collection by Hilton"
588,laurel,US,56.95,overcast clouds,39.0993,-76.8483,Days Inn & Suites by Wyndham Laurel Near Fort Meade
591,tabuk,PH,71.85,overcast clouds,17.4189,121.4443,Golden Berries Hotel and Convention
592,atambua,ID,71.01,few clouds,-9.1061,124.8925,Kost Alfa Flat
593,bria,CF,81.37,overcast clouds,6.5423,21.9863,WFP Guesthouse
594,byron bay,AU,64.71,light rain,-28.65,153.6167,Backpackers Inn
596,fethiye,TR,53.47,broken clouds,36.6217,29.1164,Club & Hotel Letoonia
597,manono,CD,70.54,overcast clouds,-7.3,27.4167,Hotel hewa bora
598,ismailia,EG,67.14,overcast clouds,30.6043,32.2723,Mercure Ismailia Forsan Island Hotel
599,baracoa,CU,84.97,scattered clouds,20.3467,-74.4958,Hostal Rio Miel
602,karwar,IN,78.21,broken clouds,14.8,74.1333,Netalco Connects
604,eureka,US,60.67,overcast clouds,40.8021,-124.1637,Eureka Inn Trademark By Wyndham
608,sterling,US,56.41,broken clouds,39.0062,-77.4286,Hampton Inn & Suites Washington-Dulles International Airport
610,yulara,AU,57.04,clear sky,-25.2406,130.9889,Desert Gardens Hotel - Ayers Rock Resort
613,lavumisa,SZ,70.59,overcast clouds,-27.31,31.892,ROADSIDE B&B
614,tura,IN,69.84,moderate rain,25.5198,90.2201,Hotel RIKMAN Continental
619,butembo,CD,58.66,light rain,0.15,29.2833,Hotel Butembo
620,omboue,GA,78.1,broken clouds,-1.5746,9.2618,Hotel Olako
621,kainantu,PG,58.59,overcast clouds,-6.2887,145.8655,Sylvester buku
622,balikpapan,ID,74.39,few clouds,-1.2675,116.8289,Swiss-Belhotel Balikpapan
623,ambanja,MG,74.1,moderate rain,-13.6833,48.45,Hotel Salama and Fast Food
624,mogadishu,SO,81.68,broken clouds,2.0371,45.3438,Hotel Juba
625,marsaxlokk,MT,56.08,clear sky,35.8419,14.5431,Water's Edge
626,yuba city,US,81.97,clear sky,39.1405,-121.6169,Bonanza Inn & Suites Yuba City
629,balkanabat,TM,75.47,clear sky,39.5108,54.3671,Nebitchi Hotel
630,qiyang,CN,56.53,broken clouds,26.5911,111.8474,鑫利大酒店
634,veraval,IN,77.43,clear sky,20.9,70.3667,Lords Inn Somnath
635,mana,GF,80.01,scattered clouds,5.6592,-53.7767,LE SAMANA
637,takoradi,GH,81.99,light rain,4.8845,-1.7554,Raybow International Hotel
638,boa vista,BR,82.38,overcast clouds,2.8197,-60.6733,Aipana Plaza Hotel
639,mayo,US,57.45,broken clouds,38.8876,-76.5119,Resorts Resource Group International
640,port-gentil,GA,81.12,scattered clouds,-0.7193,8.7815,Fengshui Residence
641,tartagal,AR,83.26,clear sky,-22.5164,-63.8013,Almuñecar Hotel
642,portland,US,55.63,overcast clouds,45.5234,-122.6762,Embassy Suites by Hilton Portland Downtown
643,lahat,ID,72.3,overcast clouds,-3.8,103.5333,Hotel Grand Zuri Lahat by ZHM
644,qarqin,AF,69.33,broken clouds,37.4185,66.0436,
646,tutoia,BR,80.38,broken clouds,-2.7619,-42.2744,Pousada Guará's
648,tucurui,BR,81.95,moderate rain,-3.7661,-49.6725,BBB Rooms Centro Tucurui PA
650,sambava,MG,77.65,light rain,-14.2667,50.1667,Melrose
651,bairiki,KI,80.6,scattered clouds,1.3292,172.9752,Tarawa Boutique Hotel
654,haimen,CN,51.69,clear sky,23.1935,116.6142,Shantou Chaoyang Donghui Hotel
655,madimba,TZ,78.19,broken clouds,-10.4,40.3333,
659,kibakwe,TZ,64.99,clear sky,-6.7167,36.3667,Muleba guest house
662,calama,CL,73.89,clear sky,-22.4667,-68.9333,Park Hotel Calama
665,baghdad,IQ,73.31,overcast clouds,33.3406,44.4009,Baghdad Hotel
668,russell,US,75.96,clear sky,32.3502,-85.1999,Macs
670,torbat-e jam,IR,67.44,clear sky,35.244,60.6225,White building
671,bubaque,GW,75.2,scattered clouds,11.2833,-15.8333,"Casa Dora, Bubaque"
672,aripuana,BR,83.07,overcast clouds,-9.1667,-60.6333,
673,asfi,MA,60.06,scattered clouds,32.2994,-9.2372,Hôtel Abda
675,peniche,PT,56.08,broken clouds,39.3558,-9.3811,Hotel Star inn Peniche
676,dangriga,BZ,83.21,few clouds,16.9692,-88.2321,Chaleanor Hotel
677,gitarama,RW,60.26,broken clouds,-2.0744,29.7567,Muhanga in Cyakabiri Motel
679,turkistan,KZ,65.37,broken clouds,43.0,68.0,
681,coolum beach,AU,69.08,few clouds,-26.5333,153.1,Coolum Beach Resort
682,saint-joseph,RE,73.78,moderate rain,-21.3667,55.6167,"""Plantation Bed and Breakfast"
683,khash,IR,67.69,clear sky,28.2211,61.2158,خوابگاه آبجی محدثه
684,awbari,LY,80.1,clear sky,26.5921,12.7805,فندق أوباري
687,jacqueville,CI,81.97,overcast clouds,5.2052,-4.4146,Hotel Le Martin Pecheur
693,ende,ID,75.2,scattered clouds,-8.8432,121.6623,Dwi Putra Hotel - Ende
694,kruisfontein,ZA,61.88,overcast clouds,-34.0033,24.7314,Oyster Bay House Rental
695,galveston,US,82.18,clear sky,29.3669,-94.9669,Crystal Suites
698,launceston,AU,56.16,scattered clouds,-41.45,147.1667,Hotel Grand Chancellor Launceston
